{"type":"FeatureCollection","features":[{"type":"Feature","properties":{"marker-color":"#7e7e7e","marker-size":"medium","marker-symbol":"","NAME":"Pantai Romodong","ADDRESS":"Jl. Ramodong, Bukit Ketok, Belinyu, Kabupaten Bangka, Kepulauan Bangka Belitung 33253","DESKRIPSI":"Pantai Romodong merupakan daya tarik wisata berupa pantai dan batuan granit. ","GAMBAR":"romodong.jpg"},"geometry":{"type":"Point","coordinates":[105.72206485426833,-1.5587546218263162]}},{"type":"Feature","properties":{"marker-color":"#7e7e7e","marker-size":"medium","marker-symbol":"","NAME":"Pantai Penyusuk","ADDRESS":"Pantai Penyusuk, Jalan Penyusuk, Bukit Ketok, Belinyu, Kabupaten Bangka, Kepulauan Bangka Belitung 33253","DESKRIPSI":"Pantai Penyusuk adalah salah satu pantai terkenal di Kepulauan Bangka Belitung. Dari pinggir pantai, pengunjung bisa menikmati pemandangan pulau-pulau kecil sekitar pantai dan juga melihat ikan-ikan laut karena jernihnya air di Pantai Penyusuk.","GAMBAR":"penyusuk.jpg"},"geometry":{"type":"Point","coordinates":[105.7040312439959,-1.5284073794198234]}},{"type":"Feature","properties":{"marker-color":"#7e7e7e","marker-size":"medium","marker-symbol":"","NAME":"Pulau Putri","ADDRESS":"FM8W+MQ Bukit Ketok, Kabupaten Bangka, Kepulauan Bangka Belitung","DESKRIPSI":"Pulau Putri Belinyu merupakan spot snorkeling yang terbaik di sisi utara Pulau Bangka,   Pemandangan hamparan terumbu karang yang indah akan memanjakan disetiap pandangan anda serta anda akan ditemani ikan - ikan yang lucu. ","GAMBAR":"put.jpg"},"geometry":{"type":"Point","coordinates":[105.69729889942131,-1.5332577637746707]}},{"type":"Feature","properties":{"marker-color":"#7e7e7e","marker-size":"medium","marker-symbol":"","NAME":"Pantai Pesaren","ADDRESS":"Pantai, Pesaren, Belinyu, Bangka Regency, Bangka Belitung Islands 33253","DESKRIPSI":"Salah satu pantai yang dianugerahi bibir yang landai, luas dan masih tergolong alami karena berbatasan langsung dengan Laut China Selatan. Ini wisata alternatif wisatawan jika bosan dengan pantai yang ramai. ","GAMBAR":"pesaren.jpg"},"geometry":{"type":"Point","coordinates":[105.84608639847413,-1.5232299064911636]}},{"type":"Feature","properties":{"marker-color":"#7e7e7e","marker-size":"medium","marker-symbol":"","NAME":"Pulau mengkudu, pesaren","ADDRESS":"Pulau mengkudu, pesaren, Belinyu","DESKRIPSI":"ulau Mengkudu merupakan nama sebuah pulau kecil tidak berpenghuni yang berada di ujung utara Pulau Bangka. Untuk memasuki pulau ini harus dengan seizin juru kunci setempat karna dianggap keramat. Ketika berada dalam pulau yang  kita harus berhati-hati dan menjaga setiap ucapan. Di bagian tengah terdapat sebuah bangunan mirip klenteng kecil yang dipercaya oleh juru kunci sebagai tempat tinggal arwah penghuni pulau tersebut.","GAMBAR":"mengkudu.jpg"},"geometry":{"type":"Point","coordinates":[105.88150228627153,-1.4948646586877783]}},{"type":"Feature","properties":{"marker-color":"#7e7e7e","marker-size":"medium","marker-symbol":"","NAME":"Pantai Pejem Utara","ADDRESS":"Desa Pejem, Belinyu, Pulau, Kepulauan Bangka Belitung","DESKRIPSI":"Pantai yang terletak di Bangka Utara, terdapat Batuan metamorf jenis filit usianya sangat tua dan diperkirakan usianya sekitar 247 juta tahun atau lebih tua dari usia dinosaurus,\"","GAMBAR":"pejemutara.jpg"},"geometry":{"type":"Point","coordinates":[105.91422002908014,-1.502437190891079]}},{"type":"Feature","properties":{"marker-color":"#7e7e7e","marker-size":"medium","marker-symbol":"","NAME":"Pantai Pejem","ADDRESS":"Gn. Pelawan, Belinyu, Kabupaten Bangka, Kepulauan Bangka Belitung 33253","DESKRIPSI":"Pantai Pejem, Kecamatan Belinyu, Kabupaten Bangka, Provinsi Kepulauan Bangka Belitung","GAMBAR":"pejem.jpg"},"geometry":{"type":"Point","coordinates":[105.91671985502036,-1.5220708227705904]}},{"type":"Feature","properties":{"marker-color":"#7e7e7e","marker-size":"medium","marker-symbol":"","NAME":"Tanjung Tuing","ADDRESS":"Unnamed Road, Mapur, Kec. Riau Silip, Kabupaten Bangka, Kepulauan Bangka Belitung 33253","DESKRIPSI":"Lokasi Pantai Tuing berada di Desa Mapur, Kec. Riau Silip, Kabupaten Bangka, Kep. Bangka Belitung. Letak lokasi pantai membutuhkan waktu sekitar 1 jam 30 menit perjalanan darat dari pusat Kota Pangkalpinang","GAMBAR":"tjtuing.jpg"},"geometry":{"type":"Point","coordinates":[106.03047261525992,-1.5941030650551726]}},{"type":"Feature","properties":{"marker-color":"#7e7e7e","marker-size":"medium","marker-symbol":"","NAME":"Pantai Pasir Putih Tuing","ADDRESS":"Mapur, Kec. Riau Silip, Kabupaten Bangka, Kepulauan Bangka Belitung 33253","DESKRIPSI":"Lokasi Pantai Tuing berada di Desa Mapur, Kec. Riau Silip, Kabupaten Bangka. Pohon kelapa dan ketapang yang tumbuh dengan subur di Pantai Tuing menjadikan suasana yang begitu sejuk dan lokasi seperti ini sangat mendukung untuk menenangkan pikiran dari hiruk piruk perkotaan.","GAMBAR":"tuing.jpg"},"geometry":{"type":"Point","coordinates":[106.0450759,-1.6155557]}},{"type":"Feature","properties":{"marker-color":"#7e7e7e","marker-size":"medium","marker-symbol":"","NAME":"Pantai Tuing Indah","ADDRESS":"Belinyu, Kabupaten Bangka, Kepulauan Bangka Belitung","DESKRIPSI":"Lokasi Pantai Tuing berada di Desa Mapur, Kec. Riau Silip, Kabupaten Bangka. Pohon kelapa dan ketapang yang tumbuh dengan subur di Pantai Tuing menjadikan suasana yang begitu sejuk dan lokasi seperti ini sangat mendukung untuk menenangkan pikiran dari hiruk piruk perkotaan.","GAMBAR":"tuing.jpg"},"geometry":{"type":"Point","coordinates":[106.0200839,-1.6575023]}},{"type":"Feature","properties":{"marker-color":"#7e7e7e","marker-size":"medium","marker-symbol":"","NAME":"Pantai Bedukang Deniang","ADDRESS":"Deniang, Kabupaten Bangka, Kepulauan Bangka Belitung","DESKRIPSI":"Lokasinya sangat berdekatan dengan pemukiman pendudukan yang mayoritas etnis Tionghoa, yang terletak di Kecamatan Riau Silip. Pantai ini memiliki  spot memancingnya yang begitu banyak. Mulai dari di pinggiran pantai atau di Pulau Tige yang banyak dihuni oleh ikan-ikan karang.","GAMBAR":"bedukang.jpg"},"geometry":{"type":"Point","coordinates":[106.062495,-1.7238206]}},{"type":"Feature","properties":{"marker-color":"#7e7e7e","marker-size":"medium","marker-symbol":"","NAME":"Pantai Air Antu","ADDRESS":"Deniang, Riau Silip, Bangka Regency, Bangka Belitung Islands 33253","DESKRIPSI":"Pantai Air Antu terletak Unnamed Road, Deniang, Riau Silip, Bangka Regency, Bangka Belitung Islands 33253","GAMBAR":"airantu.jpg"},"geometry":{"type":"Point","coordinates":[106.0851337,-1.7568173]}},{"type":"Feature","properties":{"marker-color":"#7e7e7e","marker-size":"medium","marker-symbol":"","NAME":"Pantai Pulau Tiga, Bio","ADDRESS":"Deniang, Kec. Riau Silip, Kabupaten Bangka, Kepulauan Bangka Belitung 33253","DESKRIPSI":"Pantai Pulau Tiga terletak Deniang, Kec. Riau Silip, Kabupaten Bangka, Kepulauan Bangka Belitung","GAMBAR":"pulautiga.jpg"},"geometry":{"type":"Point","coordinates":[106.09291076660156,-1.7568504886964047]}},{"type":"Feature","properties":{"marker-color":"#7e7e7e","marker-size":"medium","marker-symbol":"","NAME":"Pantai Thong Yat Thin","ADDRESS":"Deniang, Riau Silip, Bangka Regency, Bangka Belitung Islands 33253","DESKRIPSI":"Pantai Thong Yat Thin terletak Deniang, Riau Silip, Bangka Regency, Bangka Belitung Islands 33253","GAMBAR":" thong.jpg"},"geometry":{"type":"Point","coordinates":[106.0899929,-1.7579822]}},{"type":"Feature","properties":{"marker-color":"#7e7e7e","marker-size":"medium","marker-symbol":"","NAME":"Pantai MANG BULOR","ADDRESS":"Jl. Bedukang Raya, Kota Pangkal Pinang, Kepulauan Bangka Belitung 33172","DESKRIPSI":"Pantai MANG BULOR terletak Jl. Bedukang Raya, Kota Pangkal Pinang, Kepulauan Bangka Belitung","GAMBAR":"mang.jpg"},"geometry":{"type":"Point","coordinates":[106.0898326,-1.7644335]}},{"type":"Feature","properties":{"marker-color":"#7e7e7e","marker-size":"medium","marker-symbol":"","NAME":"Pantai Matras","ADDRESS":"Jalan Pantai Matras, Sinar Baru, Sungai Liat, Sinar Baru, Sungai Liat, Kabupaten Bangka, Kepulauan Bangka Belitung","DESKRIPSI":"Pantai Matras terletak Jalan Pantai Matras, Sinar Baru, Sungai Liat, Sinar Baru, Sungai Liat, Kabupaten Bangka, Kepulauan Bangka Belitung","GAMBAR":"matras.jpg"},"geometry":{"type":"Point","coordinates":[106.1155386,-1.7987557]}},{"type":"Feature","properties":{"marker-color":"#7e7e7e","marker-size":"medium","marker-symbol":"","NAME":"Pantai Jambosag","ADDRESS":"Sinar Baru, Sungai Liat, Kabupaten Bangka, Kepulauan Bangka Belitung","DESKRIPSI":"Pantai Jambosag terletak Sinar Baru, Sungai Liat, Kabupaten Bangka, Kepulauan Bangka Belitung","GAMBAR":"jambosag.jpg"},"geometry":{"type":"Point","coordinates":[106.119078,-1.7999814]}},{"type":"Feature","properties":{"marker-color":"#7e7e7e","marker-size":"medium","marker-symbol":"","NAME":"Pantai Turun Aban ","ADDRESS":"Sinar Baru, Sungai Liat, Kabupaten Bangka, Kepulauan Bangka Belitung","DESKRIPSI":"Pantai Turun Aban terletak Sinar Baru, Sungai Liat, Kabupaten Bangka, Kepulauan Bangka Belitung","GAMBAR":"turun.jpg"},"geometry":{"type":"Point","coordinates":[106.1235718,-1.8013859]}},{"type":"Feature","properties":{},"geometry":{"type":"Point","coordinates":[106.1291866,-1.8034342]}},{"type":"Feature","properties":{"marker-color":"#7e7e7e","marker-size":"medium","marker-symbol":"","NAME":"Marina Bay Beach","ADDRESS":"Sinar Baru, Sungai Liat, Kabupaten Bangka, Kepulauan Bangka Belitung 33211","DESKRIPSI":"Marina Bay Beach terletak Sinar Baru, Sungai Liat, Kabupaten Bangka, Kepulauan Bangka Belitung 33211","GAMBAR":"marina.jpg"},"geometry":{"type":"Point","coordinates":[106.1258409,-1.807521]}},{"type":"Feature","properties":{"marker-color":"#7e7e7e","marker-size":"medium","marker-symbol":"","NAME":"Pantai Rambak","ADDRESS":"Kepulauan Bangka Belitung","DESKRIPSI":"Pantai Rambak merupakan pantai indah di Kepulauan Bangka Belitung","GAMBAR":"rambak.jpg"},"geometry":{"type":"Point","coordinates":[106.1629952,-1.8704292]}}]}